[
  {
    "id": "atlanta",
    "name": "Mercedes-Benz Stadium",
    "city": "Atlanta, GA",
    "country": "US",
    "lat": 33.7554,
    "lng": -84.4008,
    "tz": "America/New_York",
    "openfootballGround": "Atlanta"
  },
  {
    "id": "boston",
    "name": "Gillette Stadium",
    "city": "Foxborough, MA",
    "country": "US",
    "lat": 42.0909,
    "lng": -71.2643,
    "tz": "America/New_York",
    "openfootballGround": "Boston (Foxborough)"
  },
  {
    "id": "dallas",
    "name": "AT&T Stadium",
    "city": "Arlington, TX",
    "country": "US",
    "lat": 32.7473,
    "lng": -97.0945,
    "tz": "America/Chicago",
    "openfootballGround": "Dallas (Arlington)"
  },
  {
    "id": "guadalajara",
    "name": "Estadio Akron",
    "city": "Zapopan",
    "country": "MX",
    "lat": 20.6819,
    "lng": -103.4625,
    "tz": "America/Mexico_City",
    "openfootballGround": "Guadalajara (Zapopan)"
  },
  {
    "id": "houston",
    "name": "NRG Stadium",
    "city": "Houston, TX",
    "country": "US",
    "lat": 29.6847,
    "lng": -95.4107,
    "tz": "America/Chicago",
    "openfootballGround": "Houston"
  },
  {
    "id": "kansas-city",
    "name": "Arrowhead Stadium",
    "city": "Kansas City, MO",
    "country": "US",
    "lat": 39.0489,
    "lng": -94.4839,
    "tz": "America/Chicago",
    "openfootballGround": "Kansas City"
  },
  {
    "id": "los-angeles",
    "name": "SoFi Stadium",
    "city": "Inglewood, CA",
    "country": "US",
    "lat": 33.9535,
    "lng": -118.3392,
    "tz": "America/Los_Angeles",
    "openfootballGround": "Los Angeles (Inglewood)"
  },
  {
    "id": "mexico-city",
    "name": "Estadio Azteca",
    "city": "Mexico City",
    "country": "MX",
    "lat": 19.3029,
    "lng": -99.1505,
    "tz": "America/Mexico_City",
    "openfootballGround": "Mexico City"
  },
  {
    "id": "miami",
    "name": "Hard Rock Stadium",
    "city": "Miami Gardens, FL",
    "country": "US",
    "lat": 25.958,
    "lng": -80.2389,
    "tz": "America/New_York",
    "openfootballGround": "Miami (Miami Gardens)"
  },
  {
    "id": "monterrey",
    "name": "Estadio BBVA",
    "city": "Guadalupe",
    "country": "MX",
    "lat": 25.669,
    "lng": -100.2444,
    "tz": "America/Monterrey",
    "openfootballGround": "Monterrey (Guadalupe)"
  },
  {
    "id": "new-york-new-jersey",
    "name": "MetLife Stadium",
    "city": "East Rutherford, NJ",
    "country": "US",
    "lat": 40.8135,
    "lng": -74.0745,
    "tz": "America/New_York",
    "openfootballGround": "New York/New Jersey (East Rutherford)"
  },
  {
    "id": "philadelphia",
    "name": "Lincoln Financial Field",
    "city": "Philadelphia, PA",
    "country": "US",
    "lat": 39.9008,
    "lng": -75.1675,
    "tz": "America/New_York",
    "openfootballGround": "Philadelphia"
  },
  {
    "id": "san-francisco-bay-area",
    "name": "Levi's Stadium",
    "city": "Santa Clara, CA",
    "country": "US",
    "lat": 37.403,
    "lng": -121.9698,
    "tz": "America/Los_Angeles",
    "openfootballGround": "San Francisco Bay Area (Santa Clara)"
  },
  {
    "id": "seattle",
    "name": "Lumen Field",
    "city": "Seattle, WA",
    "country": "US",
    "lat": 47.5952,
    "lng": -122.3316,
    "tz": "America/Los_Angeles",
    "openfootballGround": "Seattle"
  },
  {
    "id": "toronto",
    "name": "BMO Field",
    "city": "Toronto, ON",
    "country": "CA",
    "lat": 43.6332,
    "lng": -79.4185,
    "tz": "America/Toronto",
    "openfootballGround": "Toronto"
  },
  {
    "id": "vancouver",
    "name": "BC Place",
    "city": "Vancouver, BC",
    "country": "CA",
    "lat": 49.2768,
    "lng": -123.1119,
    "tz": "America/Vancouver",
    "openfootballGround": "Vancouver"
  }
]
